City_ID,City,Lat,Lng,Max Temp,Humidity,Cloudiness,Wind Speed,Country,Date
0,punta arenas,-53.15,-70.9167,10.06,57,40,11.32,CL,1699133223
1,edinburgh of the seven seas,-37.0676,-12.3116,12.25,65,99,11.41,SH,1699133223
2,dankov,53.2515,39.1555,7.9,82,100,7.88,RU,1699133223
3,grytviken,-54.2811,-36.5092,-0.61,73,6,2.68,GS,1699133223
4,hafar al-batin,28.4328,45.9708,23.32,56,0,3.09,SA,1699133223
5,canutama,-6.5339,-64.3831,31.46,52,98,1.6,BR,1699133224
6,kolonia,50.9333,6.95,11.14,85,0,6.17,DE,1699133224
7,keflavik,64.0049,-22.5624,4.24,70,75,10.8,IS,1699133224
8,invercargill,-46.4,168.35,11.12,64,50,2.68,NZ,1699133224
9,mejit,10.2753,170.8646,27.9,77,100,9.74,MH,1699133225
10,thompson,55.7435,-97.8558,-7.91,67,75,1.03,CA,1699133225
11,farkhar,36.5729,69.8578,12.16,23,100,1.06,AF,1699133225
12,utrik,11.2278,169.8474,27.77,78,69,8.75,MH,1699133225
13,albany,42.6001,-73.9662,12.55,59,93,1.51,US,1699133225
14,adamstown,-25.066,-130.1015,22.72,75,96,6.68,PN,1699133226
15,port-aux-francais,-49.35,70.2167,4.32,87,98,14.69,TF,1699133226
16,chibougamau,49.9168,-74.3659,-4.21,74,100,4.12,CA,1699133226
17,kerikeri,-35.2268,173.9474,17.73,80,33,1.34,NZ,1699133081
18,jamestown,42.097,-79.2353,10.77,68,100,3.09,US,1699133038
19,puerto natales,-51.7236,-72.4875,8.85,62,27,5.8,CL,1699133227
20,talnakh,69.4865,88.3972,-7.66,94,100,6.93,RU,1699133227
21,georgetown,5.4112,100.3354,26.96,89,20,1.54,MY,1699133025
22,college,64.8569,-147.8028,-4.82,58,100,4.63,US,1699133227
23,newman,37.3138,-121.0208,27.91,36,43,0.89,US,1699133208
24,sinop,41.7711,34.8709,17.87,50,45,5.47,TR,1699133070
25,port elizabeth,-33.918,25.5701,17.4,86,97,5.81,ZA,1699133228
26,port douglas,-16.4833,145.4667,24.33,74,98,2.98,AU,1699133228
27,bredasdorp,-34.5322,20.0403,14.85,90,100,1.41,ZA,1699133228
28,port blair,11.6667,92.75,25.02,94,40,1.03,IN,1699133228
29,reyes,-14.3167,-67.3833,24.89,49,96,0.97,BO,1699133228
30,bilibino,68.0546,166.4372,-20.84,99,52,2.2,RU,1699133229
31,hamilton,39.1834,-84.5333,19.86,46,0,5.14,US,1699132764
32,port lincoln,-34.7333,135.8667,13.76,78,14,6.14,AU,1699133229
33,hotan,37.0997,79.9269,9.08,21,6,0.52,CN,1699133229
34,brokopondo,4.75,-55.1667,32.18,52,29,1.39,SR,1699133229
35,constantia,44.1833,28.65,14.38,75,100,8.13,RO,1699133229
36,ribeira grande,38.5167,-28.7,15.22,67,75,4.12,PT,1699133230
37,unai,-16.3575,-46.9061,29.06,56,71,2.41,BR,1699133193
38,maceio,-9.6658,-35.7353,26.69,89,20,5.66,BR,1699133230
39,floriano,-6.7669,-43.0225,33.57,37,60,2.34,BR,1699133227
40,stanley,54.868,-1.6985,8.77,94,75,4.12,GB,1699133230
41,maua,-23.6678,-46.4614,25.76,32,30,1.37,BR,1699133230
42,blackmans bay,-43.0167,147.3167,11.07,77,25,0.87,AU,1699133231
43,huicheng,23.0385,116.2899,21.38,82,6,1.49,CN,1699133231
44,farasan,16.7022,42.1183,29.72,69,52,1.21,SA,1699133119
45,tiksi,71.6872,128.8694,-23.11,98,85,3.4,RU,1699133231
46,papatowai,-46.5619,169.4708,9.43,59,55,2.63,NZ,1699133231
47,crane,31.3974,-102.3501,26.25,23,0,3.0,US,1699133231
48,chonchi,-42.6128,-73.8092,12.84,98,100,1.68,CL,1699133232
49,mount gambier,-37.8333,140.7667,11.79,78,15,4.57,AU,1699133232
50,garoowe,8.4054,48.4845,24.91,77,81,5.84,SO,1699133232
51,margaret river,-33.95,115.0667,17.61,53,2,2.95,AU,1699133232
52,quepos,9.4236,-84.1652,26.06,89,100,2.23,CR,1699133232
53,pocoes,-14.5297,-40.3653,24.69,67,94,0.63,BR,1699133232
54,road town,18.4167,-64.6167,29.05,74,40,3.6,VG,1699133233
55,susuman,62.7833,148.1667,-13.34,93,100,1.79,RU,1699133233
56,qa'en,33.7265,59.1844,12.1,58,14,0.62,IR,1699133233
57,cabo san lucas,22.8909,-109.9124,32.88,56,75,4.12,MX,1699133215
58,nikolayevsk-on-amure,53.1406,140.73,-11.46,58,4,4.79,RU,1699133233
59,enewetak,11.3474,162.3373,28.63,78,81,9.33,MH,1699133233
60,ancud,-41.8697,-73.8203,10.96,98,100,5.0,CL,1699133234
61,bandarbeyla,9.4942,50.8122,26.61,83,100,6.69,SO,1699133126
62,aasiaat,68.7098,-52.8699,-6.14,95,100,1.57,GL,1699133234
63,minas de marcona,-15.2119,-75.1103,18.09,61,28,6.73,PE,1699133234
64,queenstown,-31.8976,26.8753,14.61,87,100,1.87,ZA,1699133234
65,baissa,7.2333,10.6333,23.12,94,90,1.37,NG,1699132938
66,hawaiian paradise park,19.5933,-154.9731,27.73,62,100,3.09,US,1699133023
67,ust'-ilimsk,58.0006,102.6619,-10.43,66,100,3.13,RU,1699133235
68,la'ie,21.6477,-157.9253,30.98,70,40,2.24,US,1699133235
69,port mathurin,-19.6833,63.4167,24.38,77,99,4.26,MU,1699133235
70,brownwood,31.7093,-98.9912,26.0,54,0,4.63,US,1699133235
71,olonkinbyen,70.9221,-8.7187,-0.61,87,100,13.07,SJ,1699133236
72,hermanus,-34.4187,19.2345,15.61,89,100,2.19,ZA,1699133236
73,al wajh,26.2455,36.4525,28.97,39,0,2.06,SA,1699133236
74,waitangi,-43.9535,-176.5597,16.01,89,95,0.89,NZ,1699133236
75,gadzhiyevo,69.2551,33.3362,-6.86,86,94,4.9,RU,1699133237
76,devonport,-41.1667,146.35,13.38,80,100,1.45,AU,1699133237
77,gurupa,-1.405,-51.64,32.78,44,86,1.47,BR,1699133237
78,saham,24.1722,56.8886,29.01,57,1,0.43,OM,1699133237
79,mugia,43.1041,-9.2179,13.98,81,78,14.9,ES,1699133237
80,alo,7.4178,6.7371,25.41,87,92,1.43,NG,1699133237
81,sijunjung,-0.6876,100.9537,22.29,99,84,0.56,ID,1699133238
82,puerto maldonado,-12.6,-69.1833,24.22,57,0,2.57,PE,1699133238
83,bethel,41.3712,-73.414,14.05,56,0,0.0,US,1699133238
84,burang,30.25,81.1667,-0.14,41,0,2.02,CN,1699133238
85,kamina,-8.7386,24.9906,18.28,98,80,1.19,CD,1699133238
86,ushuaia,-54.8,-68.3,6.81,81,75,9.26,AR,1699133239
87,fougamou,-1.2154,10.5838,23.59,97,85,0.62,GA,1699133239
88,lihue,21.9789,-159.3672,28.19,69,75,6.17,US,1699133240
89,petropavlovsk-kamchatsky,53.0452,158.6483,1.33,79,75,6.0,RU,1699133038
90,taltal,-25.4,-70.4833,17.65,68,23,2.2,CL,1699133240
91,kijang,35.2442,129.2139,15.85,89,100,3.86,KR,1699133240
92,west island,-12.1568,96.8225,25.99,83,75,5.66,CC,1699133240
93,taoudenni,22.6783,-3.9836,30.87,10,0,2.2,ML,1699133241
94,ladario,-19.0047,-57.6017,29.16,17,0,2.06,BR,1699133241
95,klyuchi,52.2667,79.1667,1.47,92,100,4.51,RU,1699133241
96,whitehorse,60.7161,-135.0538,-0.57,100,100,1.54,CA,1699133241
97,hastings,50.8552,0.5729,12.86,44,100,11.07,GB,1699133241
98,siemiatycze,52.4272,22.8623,6.92,80,87,2.78,PL,1699133241
99,tolanaro,-25.0319,46.9987,20.04,83,75,5.66,MG,1699133242
100,acapulco de juarez,16.8634,-99.8901,29.74,70,94,4.15,MX,1699133167
101,ujae,8.9322,165.7642,28.59,78,45,9.54,MH,1699133242
102,fangshan,39.6983,115.9925,11.41,86,100,2.14,CN,1699133242
103,mao,39.8885,4.2658,19.31,88,75,11.83,ES,1699133242
104,udachny,66.4167,112.4,-19.2,83,100,3.45,RU,1699133242
105,cruz alta,-28.6386,-53.6064,15.42,77,37,3.09,BR,1699133242
106,port alfred,-33.5906,26.891,18.54,75,100,5.81,ZA,1699133243
107,jindrichuv hradec,49.144,15.003,7.84,85,100,3.38,CZ,1699133243
108,port saint john's,-31.6229,29.5448,18.89,92,86,3.7,ZA,1699133243
109,colonia,50.9333,6.95,11.14,85,0,6.17,DE,1699132945
110,peniche,39.3558,-9.3811,16.98,61,56,11.91,PT,1699133171
111,sinabang,2.4803,96.3801,25.64,87,100,0.77,ID,1699133243
112,mananara,-16.1667,49.7667,22.79,95,70,1.86,MG,1699133243
113,sechura,-5.5569,-80.8222,25.36,53,19,8.76,PE,1699133244
114,vernon,50.2581,-119.2691,9.78,84,100,3.09,CA,1699133244
115,box elder,41.5005,-112.8764,13.4,53,90,1.96,US,1699133244
116,nova sintra,14.8667,-24.7167,23.43,76,4,6.07,CV,1699133244
117,aykhal,66.0,111.5,-17.65,84,100,4.73,RU,1699133245
118,iqaluit,63.7506,-68.5145,-3.15,63,100,6.71,CA,1699133245
119,saint-pierre,-21.3393,55.4781,23.65,92,99,5.12,RE,1699133245
120,kirensk,57.7853,108.1119,-11.69,52,93,2.68,RU,1699133245
121,moanda,-1.5575,13.2178,22.06,93,66,0.82,GA,1699133245
122,dera ismail khan,31.8327,70.9024,22.91,32,4,0.42,PK,1699133162
123,itacarambi,-15.1022,-44.0919,28.2,67,100,0.63,BR,1699133246
124,mundemba,4.9479,8.8724,24.1,95,99,1.32,CM,1699133246
125,den burg,53.0542,4.7972,9.99,94,100,6.69,NL,1699133246
126,shimoda,34.6667,138.95,17.84,82,100,3.6,JP,1699133246
127,nieuw amsterdam,5.8833,-55.0833,34.09,69,20,3.09,SR,1699133247
128,flying fish cove,-10.4217,105.6791,25.82,83,75,4.63,CX,1699133247
129,nizhniy odes,63.6445,54.856,-12.99,100,92,1.89,RU,1699133247
130,kodiak,57.79,-152.4072,5.73,81,100,7.2,US,1699133247
131,tabasco,18.0,-92.6667,24.48,99,100,0.0,MX,1699132706
132,kodinsk,58.6881,99.1844,-8.09,71,100,4.97,RU,1699133248
133,brisas de zicatela,15.8369,-97.0419,30.29,51,20,4.12,MX,1699133248
134,whitby,54.4877,-0.615,9.52,89,100,2.24,GB,1699133248
135,sidi khaled,34.387,4.9879,19.76,40,1,0.55,DZ,1699133248
136,al hudaydah,14.7978,42.9545,28.92,71,93,5.64,YE,1699133248
137,kawambwa,-9.7915,29.0791,18.68,88,91,0.98,ZM,1699133248
138,lamar,33.6668,-95.5836,25.36,58,75,6.17,US,1699133249
139,yellowknife,62.456,-114.3525,-4.77,98,100,6.17,CA,1699133221
140,xiongzhou,25.1167,114.3,21.04,90,37,1.09,CN,1699133249
141,martapura,-3.4167,114.85,25.05,100,39,1.03,ID,1699133249
142,san antonio de pale,-1.4014,5.6325,26.17,83,92,4.42,GQ,1699133249
143,ad dabbah,18.05,30.95,28.62,24,9,5.25,SD,1699133249
144,kapa'a,22.0752,-159.319,28.6,69,75,6.17,US,1699133250
145,slave lake,55.2834,-114.769,0.99,100,100,5.14,CA,1699133250
146,edson,53.5835,-116.4356,2.08,93,100,2.57,CA,1699133250
147,dawson creek,55.7666,-120.2362,-1.2,93,100,4.12,CA,1699133250
148,kavaratti,10.5669,72.642,27.42,81,95,3.32,IN,1699133250
149,lajere,11.9797,11.4443,25.84,59,40,2.67,NG,1699133251
150,polyarnyy,69.1989,33.4478,-6.16,84,94,5.25,RU,1699133251
151,maych'ew,12.7875,39.5422,14.33,71,98,2.09,ET,1699133251
152,venado tuerto,-33.7456,-61.9688,22.47,45,0,4.35,AR,1699133251
153,gubkinskiy,64.434,76.5026,-7.45,87,100,9.8,RU,1699133251
154,dudinka,69.4058,86.1778,-7.43,93,100,10.28,RU,1699133251
155,north battleford,52.7834,-108.2847,8.0,70,0,7.2,CA,1699133252
156,chatham,51.3789,0.5279,10.68,76,87,5.2,GB,1699133252
157,tabuk,17.4189,121.4443,23.36,96,43,0.78,PH,1699133252
158,avarua,-21.2078,-159.775,24.03,53,20,7.2,CK,1699133252
159,tocopilla,-22.092,-70.1979,19.59,66,21,3.75,CL,1699133252
160,antonio enes,-16.2325,39.9086,24.23,70,98,3.23,MZ,1699133252
161,arnprior,45.4334,-76.3494,8.97,64,33,2.24,CA,1699133109
162,alice springs,-23.7,133.8833,19.75,22,71,3.09,AU,1699133253
163,harstad,68.799,16.5293,2.31,65,100,3.97,NO,1699133253
164,juneau,58.3019,-134.4197,8.39,93,75,0.0,US,1699133253
165,twon-brass,4.3151,6.2418,27.14,81,80,3.07,NG,1699133253
166,fale old settlement,-9.3852,-171.2468,28.49,74,76,4.17,TK,1699133253
167,richland center,43.3347,-90.3868,13.9,41,17,2.41,US,1699133253
168,iskateley,67.6803,53.1512,-4.43,95,11,4.92,RU,1699133254
169,great falls,47.5002,-111.3008,14.25,50,100,6.17,US,1699133254
170,qaqortoq,60.7167,-46.0333,-2.13,70,15,3.78,GL,1699133254
171,belomorsk,64.5232,34.7668,-0.7,90,79,5.4,RU,1699133254
172,maneromango,-7.1988,38.7848,21.6,97,89,1.92,TZ,1699133254
173,turinsk,58.0458,63.696,-2.38,86,100,3.32,RU,1699133254
174,guerrero negro,27.9769,-114.0611,25.24,48,0,5.73,MX,1699133070
175,nantucket,41.2835,-70.0995,14.08,85,20,5.14,US,1699133146
176,kingston,17.997,-76.7936,30.53,77,20,7.72,JM,1699133002
177,mahates,10.2329,-75.1899,30.94,79,58,3.4,CO,1699133255
178,puerto ayora,-0.7393,-90.3518,28.98,84,62,4.02,EC,1699133255
179,haiku-pauwela,20.9219,-156.3051,29.01,56,40,10.8,US,1699133255
180,inirida,3.8653,-67.9239,28.43,76,93,1.59,CO,1699133255
181,lebu,-37.6167,-73.65,13.58,79,67,3.19,CL,1699133256
182,mezocsat,47.8167,20.9167,8.1,86,0,3.47,HU,1699133256
183,laguna,38.421,-121.4238,27.38,38,0,3.6,US,1699133256
184,belmopan,17.25,-88.7667,28.21,99,100,0.43,BZ,1699133256
185,tarko-sale,64.9225,77.785,-7.77,88,100,8.76,RU,1699133256
186,tver,56.8619,35.8931,5.72,63,100,5.36,RU,1699133209
187,arteche,12.2645,125.4048,25.92,89,44,2.14,PH,1699133257
188,gebeit,21.0667,36.3167,26.13,58,22,1.75,SD,1699133257
189,alofi,-19.0595,-169.9187,26.94,61,35,6.69,NU,1699133257
190,balykshi,47.0667,51.8667,10.0,81,0,3.0,KZ,1699133257
191,mushie,-3.0167,16.9,22.4,96,91,0.95,CD,1699133257
192,ione,38.3527,-120.9327,27.08,31,45,2.06,US,1699133257
193,mae hong son,19.3003,97.9685,21.62,95,93,0.51,TH,1699133258
194,nova vicosa,-17.8919,-39.3719,26.68,80,92,7.93,BR,1699133258
195,kilindoni,-7.9139,39.6668,26.43,82,65,5.48,TZ,1699133258
196,lata,40.1629,-8.3327,16.56,79,34,6.14,PT,1699133258
197,willowmore,-33.2926,23.4895,14.78,65,99,1.64,ZA,1699133258
198,jasrasar,28.298,74.8093,23.21,29,1,3.59,IN,1699133258
199,al bawiti,28.3492,28.8659,22.87,29,0,2.67,EG,1699133259
200,hami,42.8,93.45,-0.07,21,0,4.06,CN,1699133259
201,monrovia,6.3005,-10.7969,25.87,85,26,2.71,LR,1699133259
202,majdanpek,44.4277,21.946,7.48,93,1,1.24,RS,1699133119
203,hithadhoo,-0.6,73.0833,27.25,78,99,6.02,MV,1699133259
204,aydarken,39.9443,71.3429,5.74,19,16,2.37,KG,1699133260
205,ilulissat,69.2167,-51.1,-4.99,58,40,2.57,GL,1699133260
206,niafunke,15.9322,-3.9906,30.73,10,3,3.33,ML,1699133260
207,nemuro,43.3236,145.575,8.13,74,96,1.45,JP,1699133260
208,sitka,57.0531,-135.33,10.94,76,100,1.54,US,1699133261
209,timimoun,29.2639,0.231,22.21,15,0,2.57,DZ,1699133261
210,antsiranana,-12.2787,49.2917,24.88,83,100,5.07,MG,1699133261
211,vorgashor,67.5833,63.95,-7.53,92,15,6.97,RU,1699133261
212,saint-louis,16.3333,-15.0,29.8,11,79,3.64,SN,1699133261
213,hooper,41.1638,-112.1224,19.83,39,0,3.6,US,1699133246
214,norton,-17.8833,30.7,17.93,40,76,3.64,ZW,1699133262
215,cockburn town,21.4612,-71.1419,28.43,77,22,8.28,TC,1699133262
216,san juan bautista,-14.0108,-75.7358,26.87,34,44,6.15,PE,1699133262
217,ust-nera,64.5667,143.2,-14.72,98,100,3.34,RU,1699133262
218,st. john's,47.5649,-52.7093,11.65,84,75,11.83,CA,1699133058
219,itaituba,-4.2761,-55.9836,35.83,35,72,0.44,BR,1699133262
220,brak,27.5496,14.2714,24.16,19,76,1.16,LY,1699133263
221,borogontsy,62.6683,131.1683,-20.15,96,100,2.68,RU,1699133263
222,cam pha mines,21.0167,107.3,22.67,93,82,1.53,VN,1699133263
223,fortuna,40.5982,-124.1573,21.63,73,20,4.63,US,1699133263
224,prado,-17.3411,-39.2208,26.05,83,71,8.24,BR,1699133263
225,kailua-kona,19.6406,-155.9956,30.15,66,40,4.63,US,1699133264
226,bintulu,3.1667,113.0333,24.23,100,20,1.54,MY,1699133264
227,kalabo,-14.97,22.6814,26.25,48,59,1.52,ZM,1699133264
228,dumfries,38.5676,-77.328,20.09,36,82,1.18,US,1699133048
229,rio grande city,26.3798,-98.8203,30.06,35,93,3.44,US,1699133264
230,greenville,35.6127,-77.3663,22.02,55,0,2.57,US,1699133203
231,luderitz,-26.6481,15.1594,15.26,87,0,4.96,NA,1699133264
232,mazagao,-0.115,-51.2894,32.03,52,17,3.35,BR,1699133264
233,toliara,-23.35,43.6667,26.06,57,94,5.54,MG,1699133265
234,nganjuk,-7.6051,111.9035,24.65,89,43,1.88,ID,1699133265
235,cocachacra,-17.0883,-71.7575,21.09,67,15,3.45,PE,1699133265
236,lompoc,34.6391,-120.4579,30.43,50,0,6.69,US,1699133037
237,wailua homesteads,22.0669,-159.378,27.85,69,75,6.17,US,1699133265
238,port-cartier,50.0334,-66.8654,2.82,60,50,4.88,CA,1699133265
239,loudeac,48.1783,-2.7543,9.77,89,99,6.63,FR,1699133266
240,naze,28.3667,129.4833,23.51,68,27,5.62,JP,1699133266
241,luquillo,18.3725,-65.7166,29.86,81,20,4.12,PR,1699133218
242,puerto quijarro,-17.7833,-57.7667,35.15,20,5,1.88,BO,1699133266
243,nelidovo,56.2211,32.7774,7.22,98,100,3.56,RU,1699133266
244,chester,40.1254,-75.8749,15.47,57,0,0.45,US,1699133122
245,uturoa,-16.7333,-151.4333,25.45,84,76,7.43,PF,1699133266
246,kargasok,59.0556,80.8572,-5.58,89,100,7.6,RU,1699133267
247,valparaiso,-33.0393,-71.6273,18.33,68,20,7.2,CL,1699133166
248,wamba,8.9333,8.6,24.59,80,44,0.78,NG,1699133267
249,tucuma,-0.1833,-50.05,29.4,66,99,4.59,BR,1699133267
250,vikulovo,56.8167,70.6107,-2.15,84,100,4.3,RU,1699133267
251,karratha,-20.7377,116.8463,29.61,36,29,3.99,AU,1699133267
252,bismarck,46.8083,-100.7837,2.15,95,100,0.0,US,1699133244
253,merced,37.1666,-120.7516,27.91,32,52,1.56,US,1699133268
254,pyhajarvi,67.0701,27.2176,-1.99,89,100,6.64,FI,1699133268
255,el dorado,38.7666,-120.5177,23.12,49,21,4.3,US,1699133268
256,carolina beach,34.0352,-77.8936,23.37,71,37,0.45,US,1699133268
257,victoria point,-27.5833,153.3,22.88,85,52,1.34,AU,1699133268
258,howrah,22.5892,88.3103,25.0,83,40,2.06,IN,1699133268
259,wonsan,39.1528,127.4436,12.58,93,100,3.1,KP,1699133269
260,rocha,-34.4833,-54.3333,14.32,66,0,4.68,UY,1699133269
261,praia da vitoria,38.7333,-27.0667,15.14,67,40,8.64,PT,1699133269
262,longyearbyen,78.2186,15.6401,-9.09,67,75,3.6,SJ,1699133269
263,sao joao da barra,-21.6403,-41.0511,25.05,80,95,6.7,BR,1699133269
264,al wafrah,28.6392,47.9306,23.32,42,0,2.73,KW,1699133269
265,bonthe,7.5264,-12.505,26.4,84,96,1.98,SL,1699133269
266,nyurba,63.2842,118.3319,-28.02,100,58,1.8,RU,1699133270
267,yeed,4.55,43.0333,26.46,74,94,2.45,SO,1699133270
268,atafu village,-8.5421,-172.5159,28.63,76,61,4.48,TK,1699133179
269,childress,34.4264,-100.204,24.14,41,0,2.57,US,1699133270
270,namibe,-15.1961,12.1522,20.15,85,57,0.73,AO,1699133270
271,fisterra,42.9049,-9.2629,13.9,78,52,15.58,ES,1699133270
272,tura,25.5198,90.2201,19.4,73,27,1.55,IN,1699133112
273,nesterov,54.6306,22.5714,5.81,91,28,3.3,RU,1699133271
274,lerwick,60.1545,-1.1494,10.0,82,83,4.56,GB,1699133271
275,leh,34.1667,77.5833,0.61,32,1,1.28,IN,1699133222
276,saldanha,-33.0117,17.9442,15.03,90,98,6.29,ZA,1699133271
277,lethem,3.3803,-59.7968,32.64,45,100,1.66,GY,1699133271
278,castillos,-34.1667,-53.8333,14.2,67,0,5.38,UY,1699133271
279,isafjordur,66.0755,-23.124,0.88,95,100,16.9,IS,1699133271
280,glace bay,46.1969,-59.957,11.55,80,75,2.06,CA,1699133272
281,arraial do cabo,-22.9661,-42.0278,22.92,78,75,4.12,BR,1699133072
282,maluso,6.543,121.8753,25.05,84,93,2.16,PH,1699133272
283,temiskaming shores,47.4938,-79.7153,2.89,62,17,2.41,CA,1699133272
284,rongelap,11.1635,166.8941,28.29,77,28,9.46,MH,1699133272
285,keuruu,62.2667,24.7,5.1,95,100,7.21,FI,1699133272
286,broome,42.2506,-75.833,13.83,53,100,2.06,US,1699133272
287,bardai,11.65,7.2333,24.7,32,99,2.26,NG,1699133273
288,dapa,9.7594,126.0531,27.64,79,100,3.3,PH,1699133273
289,broken hill,-31.95,141.4333,14.43,28,0,5.15,AU,1699132988
290,saipan,15.1355,145.701,27.39,89,40,5.14,MP,1699133273
291,barreirinhas,-2.7469,-42.8264,27.16,78,22,4.85,BR,1699133273
292,anadyr,64.75,177.4833,-5.72,79,100,4.0,RU,1699133273
293,guiuan,11.0333,125.7247,28.65,76,84,4.34,PH,1699132998
294,ivdel',60.6911,60.4206,-3.32,73,38,6.26,RU,1699133274
295,remire-montjoly,4.9167,-52.2667,30.02,74,0,5.14,GF,1699133274
296,touros,-5.1989,-35.4608,26.03,81,46,5.68,BR,1699133274
297,mariental,-24.6333,17.9667,23.38,19,0,6.41,NA,1699133274
298,harar,9.3094,42.1258,17.17,77,100,1.12,ET,1699133274
299,santyoku,37.4406,129.1708,16.12,91,100,0.75,KR,1699133274
300,codrington,-38.2667,141.9667,13.26,71,23,5.83,AU,1699133275
301,tobelo,1.7284,128.0095,26.08,82,49,1.47,ID,1699133275
302,aleksandrovsk,59.158,57.5624,-6.25,97,57,0.94,RU,1699133275
303,kailashahar,24.3333,92.0167,19.45,94,5,1.1,IN,1699133275
304,khabarovsk,48.4808,135.0928,-10.11,67,0,4.0,RU,1699133275
305,daru,-9.0763,143.2092,25.37,88,100,6.8,PG,1699133275
306,abu jibeha,11.4562,31.2285,27.24,50,77,3.96,SD,1699133276
307,iquique,-20.2208,-70.1431,20.02,69,37,3.59,CL,1699133038
308,ta`u,-14.2336,-169.5144,26.5,82,70,10.51,AS,1699133276
309,barclayville,4.6797,-8.2339,25.55,88,43,2.09,LR,1699133276
310,salalah,17.0151,54.0924,26.05,83,20,1.54,OM,1699133276
311,glendive,47.1053,-104.7125,12.79,50,0,3.09,US,1699133276
312,tsiombe,-25.3,45.4833,20.62,71,94,7.76,MG,1699133276
313,mogadishu,2.0371,45.3438,26.83,80,100,3.51,SO,1699133277
314,kandalaksha,67.162,32.4123,-7.27,91,100,3.58,RU,1699133277
315,macapa,0.0389,-51.0664,31.99,62,20,6.17,BR,1699133277
316,basco,20.4487,121.9702,27.44,80,17,9.55,PH,1699133277
317,mount pearl,47.5166,-52.7813,11.19,84,75,11.83,CA,1699133277
318,valdivia,-39.8142,-73.2459,14.05,80,87,3.02,CL,1699133277
319,ciudad lazaro cardenas,17.9583,-102.2,29.48,73,85,3.87,MX,1699133277
320,hasaki,35.7333,140.8333,21.27,73,100,1.96,JP,1699133277
321,sao jose da coroa grande,-8.8978,-35.1478,25.92,79,5,5.17,BR,1699133278
322,qeshm,26.9581,56.2719,27.94,67,4,5.29,IR,1699133278
323,red hill,33.9996,-79.2581,24.39,58,0,3.4,US,1699133278
324,masterton,-40.9597,175.6575,14.94,58,68,1.98,NZ,1699133278
325,novyy rogachik,48.6768,44.0608,6.5,87,68,4.82,RU,1699133278
326,kapuskasing,49.4169,-82.4331,0.05,59,75,5.14,CA,1699133278
327,shizuishan,39.2333,106.7694,0.39,64,99,10.44,CN,1699133278
328,mahina,-17.5065,-149.489,24.87,88,75,3.09,PF,1699133279
329,hirara,24.8,125.2833,23.15,88,20,2.57,JP,1699133279
330,dalaguete,9.7612,123.5349,26.82,86,95,3.03,PH,1699133279
331,altamont,42.2068,-121.7372,18.21,56,75,9.77,US,1699133279
332,saint-francois,46.4154,3.9054,12.03,77,0,5.66,FR,1699133027
333,vuktyl,63.8567,57.3094,-9.38,96,84,4.02,RU,1699133280
334,nalut,30.3333,10.85,19.35,37,2,1.5,LY,1699133280
335,kyaikkami,16.08,97.5675,27.14,82,94,1.92,MM,1699133280
336,hinton,53.4001,-117.5857,5.06,84,100,1.4,CA,1699133280
337,middelburg,-25.7751,29.4648,15.94,60,59,1.72,ZA,1699133280
338,malvan,16.0667,73.4667,26.7,81,79,2.11,IN,1699133280
339,kapsan-up,41.0903,128.2933,3.26,89,100,1.19,KP,1699133281
340,khamis mushait,18.3064,42.7292,16.58,39,0,2.57,SA,1699133281
341,strezhevoy,60.7333,77.5889,-5.02,83,100,7.15,RU,1699133281
342,coquimbo,-29.9533,-71.3436,17.85,59,20,4.63,CL,1699133281
343,puerto deseado,-47.7503,-65.8938,19.1,36,100,9.04,AR,1699133281
344,zdunska wola,51.5992,18.9397,5.58,97,12,4.78,PL,1699133281
345,san juan de miraflores,-12.1629,-76.9635,20.29,76,87,4.93,PE,1699133282
346,watsa,3.0372,29.5355,17.69,99,100,1.19,CD,1699133282
347,richards bay,-28.783,32.0377,21.19,75,35,7.51,ZA,1699133282
348,santiago,-33.4569,-70.6483,21.03,51,0,8.75,CL,1699133225
349,labuan,5.2767,115.2417,26.2,94,20,0.0,MY,1699133282
350,tazovsky,67.4667,78.7,-10.8,88,100,7.29,RU,1699133282
351,boma,7.0805,-2.1697,23.81,85,55,0.86,GH,1699133283
352,napili-honokowai,20.9708,-156.6705,29.64,73,4,7.56,US,1699133283
353,isangel,-19.55,169.2667,24.17,77,71,5.11,VU,1699133283
354,kiunga,-6.1219,141.2906,22.63,100,100,0.53,PG,1699133283
355,patterson,37.4716,-121.1297,27.81,36,47,1.54,US,1699133002
356,le puy-en-velay,45.0437,3.8852,7.04,93,94,5.21,FR,1699133284
357,palasa,18.7667,84.4167,23.83,88,100,1.35,IN,1699133284
358,edmundston,47.3737,-68.3251,6.63,62,0,2.57,CA,1699133284
359,waingapu,-9.6567,120.2641,25.12,71,4,1.52,ID,1699133284
360,fort bragg,35.139,-79.006,23.91,32,0,3.09,US,1699133284
361,yuzhno-kurilsk,44.0306,145.8556,8.54,81,90,2.54,RU,1699133285
362,paita,-5.0892,-81.1144,21.53,72,64,9.33,PE,1699133285
363,tamanrasset,22.785,5.5228,18.95,16,0,1.03,DZ,1699133285
364,manicore,-5.8092,-61.3003,31.38,49,98,1.48,BR,1699133285
365,freetown,8.484,-13.2299,26.71,82,100,1.68,SL,1699133286
366,cinarli,41.4723,46.9156,10.09,72,0,0.98,AZ,1699133286
367,flin flon,54.7682,-101.865,-6.09,68,100,1.03,CA,1699133286
368,vadso,70.0744,29.7487,-7.91,86,40,4.63,NO,1699133093
369,kruisfontein,-34.0033,24.7314,15.65,81,100,4.79,ZA,1699133286
370,uruzgan,32.8333,66.0,11.19,42,12,1.72,AF,1699133286
371,dryden,49.7833,-92.7503,-1.84,74,100,3.09,CA,1699133287
372,taroa,8.7058,171.2275,27.83,80,100,8.93,MH,1699133287
373,holualoa,19.6228,-155.9522,28.08,66,40,4.63,US,1699133287
374,chadan,51.2833,91.5833,-12.19,92,100,0.45,RU,1699133287
375,les avirons,-21.2418,55.3394,21.88,91,97,6.65,RE,1699133287
376,tvoroyri,61.5556,-6.8111,8.43,92,100,8.87,FO,1699133288
377,hampton bays,40.869,-72.5176,13.84,76,100,1.54,US,1699133288
378,axum,14.1245,38.7244,13.35,86,100,2.67,ET,1699133288
379,arno,60.1167,18.6333,7.1,90,100,7.27,SE,1699133288
380,baruun-urt,46.6806,113.2792,-9.32,94,100,8.83,MN,1699133288
381,bodaybo,57.8506,114.1933,-14.57,98,100,0.81,RU,1699133289
382,prince george,53.9166,-122.753,6.69,95,100,3.6,CA,1699133289
383,afaahiti,-17.75,-149.2833,23.93,94,99,4.4,PF,1699132996
384,lagunas,-5.2269,-75.6753,30.89,57,99,1.44,PE,1699133289
385,plastun,44.7561,136.2939,-1.53,33,68,2.28,RU,1699133289
386,mili,6.0815,171.735,28.95,76,100,6.92,MH,1699133290
387,nouadhibou,20.931,-17.0347,21.99,68,60,5.14,MR,1699133290
388,malango,-2.9627,119.9001,19.1,94,96,1.23,ID,1699133290
389,trevelin,-43.0858,-71.4639,11.06,82,99,3.18,AR,1699133290
390,baiti,13.745,-14.7482,31.25,40,14,3.0,SN,1699133290
391,vilyuchinsk,52.9306,158.4028,2.15,72,79,4.85,RU,1699133291
392,el bauga,18.262,33.9081,29.89,29,8,4.79,SD,1699133291
393,talara,-4.5772,-81.2719,25.42,65,0,6.17,PE,1699133291
394,pimentel,-6.8367,-79.9342,23.16,68,0,8.75,PE,1699133291
395,togur,58.3631,82.8265,-3.81,92,100,7.15,RU,1699133291
396,durban,-29.8579,31.0292,21.51,86,61,4.47,ZA,1699133292
397,santa luzia,-19.7697,-43.8514,27.65,63,99,0.58,BR,1699133292
398,quellon,-43.1167,-73.6167,8.66,95,100,2.22,CL,1699133292
399,sambava,-14.2667,50.1667,24.05,88,100,2.29,MG,1699133292
400,vallenar,-28.5708,-70.7581,18.66,29,0,4.85,CL,1699133292
401,saudarkrokur,65.7461,-19.6394,2.15,89,96,10.0,IS,1699133292
402,korla,41.7597,86.1469,5.09,28,8,1.03,CN,1699133293
403,okehampton,50.7384,-4.0016,9.36,95,75,2.57,GB,1699133293
404,presidente olegario,-18.4178,-46.4181,25.24,64,100,4.49,BR,1699133293
405,sakchu-up,40.3894,125.0467,9.46,75,99,2.03,KP,1699133293
406,kenora,49.8167,-94.4337,-0.46,74,75,2.06,CA,1699133293
407,mobaye,4.319,21.1786,21.54,95,100,0.81,CF,1699133294
408,puerto baquerizo moreno,-0.9,-89.6,28.55,65,75,6.69,EC,1699133294
409,usinsk,65.9939,57.5281,-7.18,90,14,6.26,RU,1699133294
410,carnarvon,-24.8667,113.6333,20.36,89,3,4.29,AU,1699133294
411,polonne,50.1242,27.5109,10.21,90,100,6.59,UA,1699133294
412,east london,-33.0153,27.9116,17.51,76,77,2.82,ZA,1699133294
413,stanthorpe,-28.6667,151.95,13.57,99,100,3.03,AU,1699133295
414,bemidji,47.4736,-94.8803,0.05,79,100,2.57,US,1699133041
415,sur,22.5667,59.5289,25.9,64,0,4.58,OM,1699133295
416,point pedro,9.8167,80.2333,25.46,91,100,4.74,LK,1699133295
417,urengoy,65.9667,78.3667,-9.05,85,100,7.48,RU,1699133295
418,sisimiut,66.9395,-53.6735,-4.56,91,98,4.07,GL,1699133296
419,barrington,41.7407,-71.3087,15.03,64,100,6.17,US,1699133092
420,cabedelo,-6.9811,-34.8339,27.37,79,42,5.25,BR,1699133296
421,namtsy,62.7161,129.6658,-19.76,90,100,4.05,RU,1699133296
422,labytnangi,66.6572,66.4183,-8.65,87,12,5.34,RU,1699133296
423,nogliki,51.8333,143.1667,-5.92,72,3,9.83,RU,1699133296
424,pisco,-13.7,-76.2167,22.03,68,0,9.26,PE,1699133297
425,xilin hot,43.9667,116.0333,4.57,52,100,3.26,CN,1699133297
426,viedma,-40.8135,-62.9967,25.25,21,2,8.07,AR,1699133297
427,salekhard,66.53,66.6019,-7.27,84,15,6.88,RU,1699133297
428,gazli,40.1333,63.45,14.86,26,100,3.51,UZ,1699133297
429,acarau,-2.8856,-40.12,27.27,78,20,8.05,BR,1699133297
430,okhotsk,59.3833,143.3,-9.32,83,100,5.14,RU,1699133298
431,diu,20.7141,70.9822,25.74,39,44,1.81,IN,1699133298
432,north bend,43.4065,-124.2243,17.18,94,100,5.66,US,1699132841
433,new norfolk,-42.7826,147.0587,11.72,70,43,0.89,AU,1699133298
434,papao,-17.75,-149.55,24.82,92,99,4.48,PF,1699133298
435,kone,-21.0595,164.8658,24.14,62,96,1.95,NC,1699133298
436,thurgoona,-36.0451,146.9919,14.23,64,100,1.48,AU,1699133298
437,dashiqiao,40.6373,122.5025,9.62,39,100,1.84,CN,1699133299
438,nea ionia,38.0373,23.7595,20.34,66,20,2.68,GR,1699133299
439,northam,51.0333,-4.2167,10.34,91,98,3.62,GB,1699133299
440,sretensk,52.2453,117.7093,-16.7,91,4,0.17,RU,1699133299
441,ad dilam,23.9915,47.1627,25.23,53,80,1.8,SA,1699133300
442,puente alto,-33.6167,-70.5833,19.86,50,0,5.14,CL,1699133184
443,kuanda,56.3161,116.0806,-21.65,91,20,0.56,RU,1699133300
444,nar'yan-mar,67.6713,53.087,-4.38,95,11,4.92,RU,1699133300
445,walvis bay,-22.9575,14.5053,16.72,82,0,1.54,NA,1699133300
446,luwingu,-10.2621,29.9271,20.27,79,94,1.79,ZM,1699133300
447,cidreira,-30.1811,-50.2056,17.66,66,70,9.12,BR,1699133301
448,callao,-12.0667,-77.15,21.16,64,40,8.75,PE,1699133301
449,umm kaddadah,13.6017,26.6876,28.76,22,51,4.67,SD,1699133301
450,hilo,19.7297,-155.09,27.85,60,100,3.09,US,1699133040
451,marsa alam,25.0757,34.8918,26.47,61,0,1.63,EG,1699133301
452,lokbatan,40.3237,49.728,14.99,75,11,4.51,AZ,1699133302
453,changshu city,31.6462,120.7422,19.97,93,11,2.85,CN,1699133302
454,ankazoabo,-22.2833,44.5167,22.02,62,86,3.93,MG,1699133302
455,orange beach,30.2944,-87.5736,27.38,62,0,3.09,US,1699133302
456,obo,5.3998,26.4869,20.0,97,100,1.39,CF,1699133302
457,nampula,-15.1165,39.2666,20.97,78,0,3.09,MZ,1699133302
458,yonggang-up,38.8561,125.4244,12.2,74,99,3.71,KP,1699133302
459,homs,34.7268,36.7234,19.91,48,0,0.93,SY,1699133303
460,yerofey pavlovich,53.9667,121.9667,-15.99,63,8,0.78,RU,1699133303
461,general acha,-37.377,-64.6043,25.89,26,96,7.75,AR,1699133303
462,pangody,65.85,74.4859,-8.36,90,99,7.53,RU,1699133303
463,ambalangoda,6.2355,80.0538,25.54,86,100,1.83,LK,1699133303
464,conduaga,8.862,117.4893,26.22,84,100,1.27,PH,1699133303
465,jwaneng,-24.6004,24.7303,17.95,56,75,5.01,BW,1699133304
466,el tigre,8.8875,-64.2454,30.82,51,100,2.43,VE,1699133304
467,labrador city,52.9463,-66.9114,-7.05,73,75,4.12,CA,1699133304
468,chifeng,42.2683,118.9636,2.53,43,100,1.77,CN,1699133304
469,antofagasta,-23.65,-70.4,18.6,68,3,3.81,CL,1699133164
470,maragogi,-9.0122,-35.2225,25.86,79,5,5.13,BR,1699133304
471,srivardhan,18.0333,73.0167,25.99,63,98,1.86,IN,1699133305
472,pulandian,39.3953,121.9669,11.22,63,100,3.68,CN,1699133305
473,alexandria,31.2156,29.9553,23.19,70,0,2.59,EG,1699133254
474,tughyl,47.7252,84.2063,0.78,61,100,4.3,KZ,1699133305
475,geraldton,-28.7667,114.6,20.23,77,100,3.6,AU,1699133305
476,porto novo,6.4965,2.6036,28.9,86,83,2.68,BJ,1699133306
477,taksimo,56.3444,114.8794,-18.86,84,53,0.84,RU,1699133306
478,maxixe,-23.8597,35.3472,21.99,72,45,4.8,MZ,1699133306
479,wundanyi,-3.4019,38.364,16.91,90,90,2.43,KE,1699133307
480,aioun,16.6614,-9.6149,30.89,9,0,3.85,MR,1699133307
481,tutoia,-2.7619,-42.2744,27.18,83,53,5.95,BR,1699133308
482,pariaman,-0.619,100.12,23.03,91,99,1.27,ID,1699133275
483,someshwar,13.5,75.0667,23.2,97,100,1.26,IN,1699133308
484,wangqing,43.3218,129.7634,1.74,93,100,0.93,CN,1699133309
485,villa bruzual,9.3328,-69.1208,28.02,80,67,0.37,VE,1699133309
486,cardenas,23.0375,-81.2047,27.42,80,63,6.17,CU,1699133309
487,mahalapye,-23.1041,26.8142,20.54,55,59,0.39,BW,1699133309
488,huaicheng,23.9051,112.1931,20.93,91,19,0.6,CN,1699133310
489,cururupu,-1.8283,-44.8683,26.83,76,4,2.3,BR,1699133310
490,san lawrenz,36.0553,14.204,19.92,68,97,6.1,MT,1699133310
491,brookings,44.3114,-96.7984,15.06,61,75,5.14,US,1699133310
492,pailin,12.849,102.6093,22.79,95,72,0.29,KH,1699133310
493,isla mujeres,21.2311,-86.731,25.09,85,100,8.62,MX,1699133310
494,ramapuram,13.1167,79.2,22.82,93,99,1.17,IN,1699133311
495,berdigestyakh,62.0989,126.6992,-20.72,94,100,4.11,RU,1699133311
496,puerto san jose,13.9256,-90.8244,27.1,76,97,1.94,GT,1699133311
497,yelizovo,53.1873,158.3805,2.08,59,75,6.0,RU,1699133311
498,banikoara,11.2985,2.4386,27.46,28,48,2.16,BJ,1699133311
499,santo domingo,18.5001,-69.9886,30.82,71,20,4.12,DO,1699133136
500,genhe,50.7833,121.5167,-19.62,98,57,1.22,CN,1699133312
501,kirakira,-10.4544,161.9205,27.5,84,99,5.12,SB,1699133120
502,ratnagiri,16.9833,73.3,26.78,76,92,1.51,IN,1699133312
503,beloyarskiy,63.7119,66.6722,-5.56,92,20,5.81,RU,1699133312
504,amble,55.3333,-1.5833,10.08,87,100,5.66,GB,1699133312
505,alaghsas,17.0187,8.0168,27.86,13,4,3.2,NE,1699133312
506,chinsali,-10.5414,32.0816,19.77,74,33,1.76,ZM,1699133313
507,strathmore,51.0501,-113.3852,6.31,81,100,5.14,CA,1699133313
508,uglegorsk,49.0833,142.0333,-1.89,60,7,7.64,RU,1699133313
509,syzran',53.1585,48.4681,1.48,81,0,2.2,RU,1699133313
510,winnemucca,40.973,-117.7357,22.03,24,0,1.54,US,1699133313
511,paracatu,-17.2222,-46.8747,23.21,86,96,2.9,BR,1699133313
512,verkh-chebula,56.0308,87.6218,-0.66,90,100,8.38,RU,1699133314
513,kingisepp,59.3733,28.6134,5.21,93,100,4.41,RU,1699133314
514,alesund,62.4723,6.1549,10.08,61,0,4.63,NO,1699133143
515,katsuura,35.1333,140.3,19.68,75,100,2.22,JP,1699133314
516,aral,40.5156,81.2636,8.25,37,23,7.44,CN,1699133314
517,kismayo,-0.3582,42.5454,26.34,85,99,4.26,SO,1699133315
518,guanica,17.9716,-66.908,30.03,64,74,5.11,PR,1699133315
519,sciacca,37.5082,13.0881,15.91,69,22,3.65,IT,1699133315
520,itirapina,-22.2528,-47.8228,23.17,45,7,2.56,BR,1699133315
521,necochea,-38.5473,-58.7368,15.25,49,0,4.98,AR,1699133315
522,hargeysa,9.56,44.065,20.21,80,99,2.48,SO,1699133316
523,baikonur,45.6167,63.3167,9.26,57,71,4.19,KZ,1699133316
524,isetskoye,56.4858,65.3226,-2.86,89,100,3.43,RU,1699133316
525,abu,24.6,72.7,19.05,36,45,0.35,IN,1699133316
526,gao,16.6362,1.637,28.14,13,6,4.4,ML,1699133316
527,zhoucheng,35.9122,116.3117,14.72,92,100,3.57,CN,1699133316
528,port augusta,-32.5,137.7667,16.12,36,1,2.21,AU,1699133270
529,tangalle,6.024,80.7911,24.09,88,93,0.35,LK,1699133317
530,barcelos,41.5388,-8.6151,16.08,78,54,8.82,PT,1699133317
531,pishin,30.5803,66.9961,14.93,30,7,1.35,PK,1699133317
532,carbonear,47.7332,-53.2148,11.9,81,92,10.67,CA,1699133317
533,hadibu,12.65,54.0333,26.22,80,100,3.37,YE,1699133317
534,aleg,17.0481,-13.9209,33.05,11,27,3.43,MR,1699133318
535,tamazunchale,21.2667,-98.7833,25.69,61,98,2.11,MX,1699133318
536,kavieng,-2.5744,150.7967,28.27,75,96,3.04,PG,1699133318
537,shixing,24.9482,114.0657,20.82,93,34,0.64,CN,1699133318
538,garachico,28.7781,-17.7646,21.06,64,40,4.12,ES,1699133318
539,sao paulo de olivenca,-3.3783,-68.8725,33.31,49,96,1.53,BR,1699133318
540,ares,-6.1944,-35.1603,27.05,81,41,4.59,BR,1699133319
541,sligo,54.2697,-8.4694,7.0,88,54,2.68,IE,1699133319
542,sibiti,-3.6819,13.3499,21.47,98,100,1.05,CG,1699133319
543,portland,45.5234,-122.6762,19.02,87,100,3.09,US,1699132859
544,ketchikan,55.3422,-131.6461,10.99,100,100,2.57,US,1699133263
545,mamburao,13.25,120.6667,25.04,81,90,2.07,PH,1699133319
546,san patricio,28.017,-97.5169,28.97,41,61,3.64,US,1699133319
547,sinan,34.8262,126.1086,18.06,88,100,7.3,KR,1699133319
548,wattegama,6.7989,81.4808,23.45,94,100,0.96,LK,1699133320
549,bossangoa,6.4926,17.4552,20.51,94,97,0.8,CF,1699133320
550,murzuq,25.9155,13.9184,22.9,19,27,2.3,LY,1699133320
551,fallon,39.4735,-118.7774,25.51,22,40,1.54,US,1699133232
552,bokovskaya,49.229,41.8306,8.81,85,87,5.51,RU,1699133320
553,savanna-la-mar,18.219,-78.1332,29.97,79,48,1.72,JM,1699133320
554,arvin,35.2091,-118.8284,31.63,33,100,0.61,US,1699133320
555,nuku'alofa,-21.1333,-175.2,27.19,78,40,7.72,TO,1699133321
556,pyt-yakh,60.7499,72.8582,-5.19,87,86,5.38,RU,1699133321
557,urangan,-25.3,152.9,22.59,67,48,4.85,AU,1699133321
558,yamada,39.4667,141.95,12.37,81,100,2.81,JP,1699133321
559,tazacorte,28.629,-17.9293,22.54,83,40,4.12,ES,1699133321
560,arraias,-12.9288,-46.9437,28.1,56,100,1.68,BR,1699133321
561,lai,9.3952,16.2989,25.22,71,90,0.89,TD,1699133322
562,bel ombre,-4.6167,55.4167,24.91,88,20,1.54,SC,1699133322
563,salinas,36.6777,-121.6555,29.24,51,0,3.09,US,1699133125
564,zouerate,22.7187,-12.4521,23.47,29,0,3.9,MR,1699133322
565,tame,6.461,-71.73,24.86,81,100,0.77,CO,1699133322
566,sandpoint,48.2766,-116.5533,9.88,90,100,0.45,US,1699133322
567,abadan,30.3392,48.3043,20.97,64,0,1.03,IR,1699133322
568,boa vista,2.8197,-60.6733,33.99,46,75,4.63,BR,1699133323
569,federacion,-31.0062,-57.8996,21.99,60,0,1.62,AR,1699133323
570,vilyuysk,63.7553,121.6247,-26.51,99,44,1.79,RU,1699133323
571,al jahra',29.3375,47.6581,25.9,39,0,2.35,KW,1699133323
572,okha,53.5739,142.9478,-7.43,68,100,11.4,RU,1699133323
